{
  "last_updated": "2026-06-05",
  "total_count": 137,
  "stores": [
    {
      "handle": "alcosta-skate-and-smoke-san-ramon",
      "name": "Alcosta Skate and Smoke",
      "address": "9150 Alcosta Blvd, Ste E",
      "city": "San Ramon",
      "state": "CA",
      "state_full": "California",
      "zip": "94583",
      "phone": "(925) 587-8178",
      "website": "",
      "category": "Retail",
      "lat": "37.7293605",
      "lng": "-121.9315635"
    },
    {
      "handle": "alcosta-smoke-shop-san-ramon",
      "name": "Alcosta Smoke Shop",
      "address": "9150 Alcosta Blvd Ste E",
      "city": "San Ramon",
      "state": "CA",
      "state_full": "California",
      "zip": "94583",
      "phone": "(925) 587-8178",
      "website": "",
      "category": "Smoke/Vape Shop",
      "lat": "37.7293605",
      "lng": "-121.9315635"
    },
    {
      "handle": "primo-s-vapor-smokes-fort-walton-beach",
      "name": "Primo's Vapor Smokes",
      "address": "11 Eglin Pkwy SE Unit 1",
      "city": "Fort Walton Beach",
      "state": "FL",
      "state_full": "Florida",
      "zip": "32548",
      "phone": "(850) 243-7473",
      "website": "https://primosvaporsmokes.net",
      "category": "Smoke/Vape Shop",
      "lat": "30.4110858",
      "lng": "-86.6034511"
    },
    {
      "handle": "strain-theory-lake-wales",
      "name": "Strain Theory",
      "address": "343 W Central Ave Suite #6",
      "city": "Lake Wales",
      "state": "FL",
      "state_full": "Florida",
      "zip": "33853",
      "phone": "(863) 676-5598",
      "website": "https://straintheorycbd.com",
      "category": "Wellness/CBD",
      "lat": "27.8998903",
      "lng": "-81.5972748"
    },
    {
      "handle": "herban-flow-dtsp-st-petersburg",
      "name": "Herban Flow - DTSP",
      "address": "501 Dr MLK Jr St N Suite 103",
      "city": "St Petersburg",
      "state": "FL",
      "state_full": "Florida",
      "zip": "33701",
      "phone": "(727) 430-9576",
      "website": "https://herbanflow.co",
      "category": "Wellness/CBD",
      "lat": "27.7777181",
      "lng": "-82.6463397"
    },
    {
      "handle": "the-standard-clcl-coffee-shop-the-villages",
      "name": "The Standard CLCL -- Coffee Shop",
      "address": "1552 Bella Cruz Dr Ste B",
      "city": "The Villages",
      "state": "FL",
      "state_full": "Florida",
      "zip": "32159",
      "phone": "(352) 775-8358",
      "website": "https://thestandardclcl.com",
      "category": "Restaurant/Cafe",
      "lat": "28.9518178",
      "lng": "-81.9600324"
    },
    {
      "handle": "namaste-indian-street-food-evans",
      "name": "Namaste Indian Street Food",
      "address": "4272 Washington Rd #5A",
      "city": "Evans",
      "state": "GA",
      "state_full": "Georgia",
      "zip": "30809",
      "phone": "(706) 755-2082",
      "website": "https://namastestreetfood.com",
      "category": "Restaurant/Cafe",
      "lat": "33.5330561",
      "lng": "-82.1270558"
    },
    {
      "handle": "canton-discount-tobacco-inc-canton",
      "name": "Canton Discount Tobacco Inc",
      "address": "730 S 5th Ave",
      "city": "Canton",
      "state": "IL",
      "state_full": "Illinois",
      "zip": "61520",
      "phone": "(309) 326-4041",
      "website": "",
      "category": "Retail",
      "lat": "40.5468913",
      "lng": "-90.02793539999999"
    },
    {
      "handle": "panorama-tobacco-vape-canton",
      "name": "Panorama Tobacco & Vape",
      "address": "460 E Linn St",
      "city": "Canton",
      "state": "IL",
      "state_full": "Illinois",
      "zip": "61520",
      "phone": "(309) 892-1287",
      "website": "",
      "category": "Smoke/Vape Shop",
      "lat": "40.5459089",
      "lng": "-90.0277497"
    },
    {
      "handle": "piccadilly-liquors-champaign",
      "name": "Piccadilly Liquors",
      "address": "601 S. 1st St.",
      "city": "Champaign",
      "state": "IL",
      "state_full": "Illinois",
      "zip": "",
      "phone": "",
      "website": "",
      "category": "Retail",
      "lat": "40.1111747",
      "lng": "-88.23893029999999"
    },
    {
      "handle": "clark-haus-liquor-chicago",
      "name": "Clark Haus Liquor",
      "address": "5059 N Clark St",
      "city": "Chicago",
      "state": "IL",
      "state_full": "Illinois",
      "zip": "60640",
      "phone": "(773) 654-3047",
      "website": "",
      "category": "Retail",
      "lat": "41.9741673",
      "lng": "-87.6679228"
    },
    {
      "handle": "foodsmart-chicago",
      "name": "Foodsmart",
      "address": "2901 W. Armitage Ave.",
      "city": "Chicago",
      "state": "IL",
      "state_full": "Illinois",
      "zip": "",
      "phone": "",
      "website": "",
      "category": "Retail",
      "lat": "41.9171558",
      "lng": "-87.6996319"
    },
    {
      "handle": "fresh-stop-market-chicago",
      "name": "Fresh Stop Market",
      "address": "930 W. Belmont Ave.",
      "city": "Chicago",
      "state": "IL",
      "state_full": "Illinois",
      "zip": "60657",
      "phone": "",
      "website": "",
      "category": "Retail",
      "lat": "41.9401751",
      "lng": "-87.6527548"
    },
    {
      "handle": "galleria-liquors-chicago",
      "name": "Galleria Liquors",
      "address": "340 W. Superior St.",
      "city": "Chicago",
      "state": "IL",
      "state_full": "Illinois",
      "zip": "",
      "phone": "",
      "website": "",
      "category": "Retail",
      "lat": "41.895743",
      "lng": "-87.6375056"
    },
    {
      "handle": "hops-and-scotch-chicago",
      "name": "Hops and Scotch",
      "address": "720 S. Wells St.",
      "city": "Chicago",
      "state": "IL",
      "state_full": "Illinois",
      "zip": "60607",
      "phone": "",
      "website": "",
      "category": "Retail",
      "lat": "41.8725539",
      "lng": "-87.6338894"
    },
    {
      "handle": "malibu-market-chicago",
      "name": "Malibu Market",
      "address": "6033 N. Sheridan Rd.",
      "city": "Chicago",
      "state": "IL",
      "state_full": "Illinois",
      "zip": "60660",
      "phone": "",
      "website": "",
      "category": "Retail",
      "lat": "41.9917405",
      "lng": "-87.6545302"
    },
    {
      "handle": "pride-market-chicago",
      "name": "Pride Market",
      "address": "5415 N. Clark St.",
      "city": "Chicago",
      "state": "IL",
      "state_full": "Illinois",
      "zip": "",
      "phone": "",
      "website": "",
      "category": "Retail",
      "lat": "41.9803793",
      "lng": "-87.6680444"
    },
    {
      "handle": "rayan-s-liquors-chicago",
      "name": "Rayan's Liquors",
      "address": "4559 N. Sheridan Rd.",
      "city": "Chicago",
      "state": "IL",
      "state_full": "Illinois",
      "zip": "60642",
      "phone": "",
      "website": "",
      "category": "Retail",
      "lat": "41.9652484",
      "lng": "-87.65452859999999"
    },
    {
      "handle": "west-loop-market-chicago",
      "name": "West Loop Market",
      "address": "1222 W. Madison St.",
      "city": "Chicago",
      "state": "IL",
      "state_full": "Illinois",
      "zip": "",
      "phone": "",
      "website": "",
      "category": "Retail",
      "lat": "41.8818194",
      "lng": "-87.65790179999999"
    },
    {
      "handle": "windy-city-market-chicago",
      "name": "Windy City Market",
      "address": "1756 N. Chicago Ave.",
      "city": "Chicago",
      "state": "IL",
      "state_full": "Illinois",
      "zip": "60622",
      "phone": "",
      "website": "",
      "category": "Retail",
      "lat": "42.1080189",
      "lng": "-88.0026906"
    },
    {
      "handle": "express-smoke-shop-chillicothe",
      "name": "Express Smoke Shop",
      "address": "120 N 4th St",
      "city": "Chillicothe",
      "state": "IL",
      "state_full": "Illinois",
      "zip": "61523",
      "phone": "(309) 570-1515",
      "website": "",
      "category": "Retail",
      "lat": "40.9083632",
      "lng": "-89.4917224"
    },
    {
      "handle": "bazzar-smoke-shop-galesburg",
      "name": "Bazzar Smoke Shop",
      "address": "755 N Henderson St",
      "city": "Galesburg",
      "state": "IL",
      "state_full": "Illinois",
      "zip": "61401",
      "phone": "(309) 351-7196",
      "website": "https://bazzarsmokeshop.com",
      "category": "Smoke/Vape Shop",
      "lat": "40.9563165",
      "lng": "-90.38294359999999"
    },
    {
      "handle": "mobil-food-mart-galesburg-galesburg",
      "name": "Mobil Food Mart (Galesburg)",
      "address": "501 N Henderson St",
      "city": "Galesburg",
      "state": "IL",
      "state_full": "Illinois",
      "zip": "61401",
      "phone": "(309) 343-5675",
      "website": "",
      "category": "Retail",
      "lat": "40.9531639",
      "lng": "-90.38292829999999"
    },
    {
      "handle": "mr-puff-vapes-galesburg",
      "name": "Mr Puff Vapes",
      "address": "503 Knox Square Dr #103",
      "city": "Galesburg",
      "state": "IL",
      "state_full": "Illinois",
      "zip": "61401",
      "phone": "(716) 463-3671",
      "website": "",
      "category": "Smoke/Vape Shop",
      "lat": "40.980063",
      "lng": "-90.3620217"
    },
    {
      "handle": "burger-local-geneva",
      "name": "Burger Local",
      "address": "577 S 3rd St, Ste 102",
      "city": "Geneva",
      "state": "IL",
      "state_full": "Illinois",
      "zip": "60134",
      "phone": "(630) 232-2806",
      "website": "http://theburgerlocal.com",
      "category": "Retail",
      "lat": "41.882003",
      "lng": "-88.3090158"
    },
    {
      "handle": "havana-smoke-tobacco-shop-havana",
      "name": "Havana Smoke & Tobacco Shop",
      "address": "402 E Laurel Ave, Suite B",
      "city": "Havana",
      "state": "IL",
      "state_full": "Illinois",
      "zip": "62644",
      "phone": "",
      "website": "",
      "category": "Retail",
      "lat": "40.2972219",
      "lng": "-90.05575669999999"
    },
    {
      "handle": "havana-smoke-shop-havana",
      "name": "Havana Smoke Shop",
      "address": "402 E Laurel Ave Ste B",
      "city": "Havana",
      "state": "IL",
      "state_full": "Illinois",
      "zip": "62644",
      "phone": "(217) 308-8553",
      "website": "https://havanasmokeshop.net",
      "category": "Smoke/Vape Shop",
      "lat": "40.2972219",
      "lng": "-90.05575669999999"
    },
    {
      "handle": "king-liquor-havana",
      "name": "King Liquor",
      "address": "603 S Orange St",
      "city": "Havana",
      "state": "IL",
      "state_full": "Illinois",
      "zip": "62644",
      "phone": "(217) 308-8553",
      "website": "",
      "category": "Liquor Store",
      "lat": "40.2940443",
      "lng": "-90.0633311"
    },
    {
      "handle": "amoco-morton",
      "name": "Amoco",
      "address": "601 W Jackson St",
      "city": "Morton",
      "state": "IL",
      "state_full": "Illinois",
      "zip": "61550",
      "phone": "(309) 321-8325",
      "website": "",
      "category": "Convenience/Market",
      "lat": "40.616392",
      "lng": "-89.46469049999999"
    },
    {
      "handle": "mobil-food-mart-peoria",
      "name": "Mobil Food Mart",
      "address": "640 W Main St",
      "city": "Peoria",
      "state": "IL",
      "state_full": "Illinois",
      "zip": "61606",
      "phone": "(309) 966-0360",
      "website": "",
      "category": "Convenience/Market",
      "lat": "40.6994914",
      "lng": "-89.6032365"
    },
    {
      "handle": "mobil-food-mart-peoria-peoria",
      "name": "Mobil Food Mart (Peoria)",
      "address": "640 W Main St",
      "city": "Peoria",
      "state": "IL",
      "state_full": "Illinois",
      "zip": "61606",
      "phone": "",
      "website": "",
      "category": "Retail",
      "lat": "40.6994914",
      "lng": "-89.6032365"
    },
    {
      "handle": "rbm-mart-inc-peoria",
      "name": "RBM Mart Inc",
      "address": "2416 N University St",
      "city": "Peoria",
      "state": "IL",
      "state_full": "Illinois",
      "zip": "61604",
      "phone": "(309) 210-4776",
      "website": "",
      "category": "Convenience/Market",
      "lat": "40.717586",
      "lng": "-89.6126568"
    },
    {
      "handle": "smoke-zone-peoria",
      "name": "Smoke Zone",
      "address": "3320 N University St",
      "city": "Peoria",
      "state": "IL",
      "state_full": "Illinois",
      "zip": "61604",
      "phone": "(309) 839-2624",
      "website": "",
      "category": "Retail",
      "lat": "40.7285233",
      "lng": "-89.6122406"
    },
    {
      "handle": "almadina-international-foods-springfield",
      "name": "Almadina International Foods",
      "address": "2700 W Lawrence Ave",
      "city": "Springfield",
      "state": "IL",
      "state_full": "Illinois",
      "zip": "62704",
      "phone": "(217) 679-4951",
      "website": "",
      "category": "Retail",
      "lat": "39.794336",
      "lng": "-89.7055608"
    },
    {
      "handle": "almadina-international-foods-inc-springfield",
      "name": "Almadina International Foods Inc",
      "address": "2700 W Lawrence Ave",
      "city": "Springfield",
      "state": "IL",
      "state_full": "Illinois",
      "zip": "62704",
      "phone": "(217) 679-4951",
      "website": "",
      "category": "Grocery",
      "lat": "39.794336",
      "lng": "-89.7055608"
    },
    {
      "handle": "cloud-9-vape-tobacco-springfield",
      "name": "Cloud 9 Vape & Tobacco",
      "address": "1933 E Sangamon Ave",
      "city": "Springfield",
      "state": "IL",
      "state_full": "Illinois",
      "zip": "62702",
      "phone": "(217) 670-2730",
      "website": "",
      "category": "Retail",
      "lat": "39.8320604",
      "lng": "-89.62930229999999"
    },
    {
      "handle": "wildflower-mercantile-wheaton",
      "name": "Wildflower Mercantile",
      "address": "134 W Liberty Dr",
      "city": "Wheaton",
      "state": "IL",
      "state_full": "Illinois",
      "zip": "60187",
      "phone": "(630) 447-9554",
      "website": "https://shopwildflowermercantile.com",
      "category": "Retail",
      "lat": "41.863887",
      "lng": "-88.107946"
    },
    {
      "handle": "franklin-apothecary-franklin",
      "name": "Franklin Apothecary",
      "address": "602 Victoria Way",
      "city": "Franklin",
      "state": "KY",
      "state_full": "Kentucky",
      "zip": "42134",
      "phone": "(317) 694-3678",
      "website": "https://franklinapothecary.com",
      "category": "Wellness/CBD",
      "lat": "36.7647441",
      "lng": "-86.5852431"
    },
    {
      "handle": "bella-sunrise-smokeshop-baton-rouge",
      "name": "Bella Sunrise Smokeshop",
      "address": "6010 Jones Creek Road",
      "city": "Baton Rouge",
      "state": "LA",
      "state_full": "Louisiana",
      "zip": "70817",
      "phone": "",
      "website": "",
      "category": "Retail",
      "lat": "30.3989239",
      "lng": "-91.0178195"
    },
    {
      "handle": "rad-dad-alternative-baton-rouge",
      "name": "Rad Dad Alternative",
      "address": "2558 Government St",
      "city": "Baton Rouge",
      "state": "LA",
      "state_full": "Louisiana",
      "zip": "70806",
      "phone": "",
      "website": "",
      "category": "Retail",
      "lat": "30.4437647",
      "lng": "-91.161659"
    },
    {
      "handle": "rad-dad-alternative-baton-rouge",
      "name": "Rad Dad Alternative",
      "address": "8210 Jefferson HWY Suite B",
      "city": "Baton Rouge",
      "state": "LA",
      "state_full": "Louisiana",
      "zip": "70809",
      "phone": "",
      "website": "",
      "category": "Retail",
      "lat": "30.4211921",
      "lng": "-91.10147119999999"
    },
    {
      "handle": "total-wine-baton-rouge-2504-baton-rouge",
      "name": "Total Wine Baton Rouge 2504",
      "address": "7074 Siegen Lane",
      "city": "Baton Rouge",
      "state": "LA",
      "state_full": "Louisiana",
      "zip": "70809",
      "phone": "",
      "website": "",
      "category": "Retail",
      "lat": "30.385245",
      "lng": "-91.0663209"
    },
    {
      "handle": "legacy-vibes-broussard",
      "name": "Legacy Vibes",
      "address": "730 Albertson Pkwy, Ste C",
      "city": "Broussard",
      "state": "LA",
      "state_full": "Louisiana",
      "zip": "70518",
      "phone": "(337) 330-4744",
      "website": "",
      "category": "Retail",
      "lat": "30.137846",
      "lng": "-91.96815099999999"
    },
    {
      "handle": "legacy-vibes-vape-smoke-shop-broussard",
      "name": "Legacy Vibes Vape & Smoke Shop",
      "address": "730 Albertson Pkwy Suite C",
      "city": "Broussard",
      "state": "LA",
      "state_full": "Louisiana",
      "zip": "70518",
      "phone": "(337) 330-4744",
      "website": "https://facebook.com/p/Legacy-Vibes-Vape-Smoke-Shop",
      "category": "Smoke/Vape Shop",
      "lat": "30.137846",
      "lng": "-91.96815099999999"
    },
    {
      "handle": "lit-clouds-smoke-shop-carencro",
      "name": "LIT Clouds Smoke Shop",
      "address": "926 Veterans Dr",
      "city": "Carencro",
      "state": "LA",
      "state_full": "Louisiana",
      "zip": "70520",
      "phone": "(337) 520-2134",
      "website": "",
      "category": "Smoke/Vape Shop",
      "lat": "30.3215398",
      "lng": "-92.0369312"
    },
    {
      "handle": "lit-smoke-and-vape-carencro",
      "name": "Lit Smoke and Vape",
      "address": "926 Veterans Dr",
      "city": "Carencro",
      "state": "LA",
      "state_full": "Louisiana",
      "zip": "70520",
      "phone": "(337) 520-2134",
      "website": "",
      "category": "Retail",
      "lat": "30.3215398",
      "lng": "-92.0369312"
    },
    {
      "handle": "acquistapace-s-covington",
      "name": "Acquistapace's",
      "address": "125 E 21st Ave",
      "city": "Covington",
      "state": "LA",
      "state_full": "Louisiana",
      "zip": "70433",
      "phone": "",
      "website": "",
      "category": "Retail",
      "lat": "30.4746221",
      "lng": "-90.10022599999999"
    },
    {
      "handle": "green-room-covington",
      "name": "Green Room",
      "address": "521 E Boston St.",
      "city": "Covington",
      "state": "LA",
      "state_full": "Louisiana",
      "zip": "70433",
      "phone": "",
      "website": "",
      "category": "Hospitality",
      "lat": "30.4754886",
      "lng": "-90.0948476"
    },
    {
      "handle": "layton-s-pharmacy-covington",
      "name": "Layton's Pharmacy",
      "address": "70457 LA 21 #118",
      "city": "Covington",
      "state": "LA",
      "state_full": "Louisiana",
      "zip": "70043",
      "phone": "",
      "website": "",
      "category": "Retail",
      "lat": "",
      "lng": ""
    },
    {
      "handle": "turgeau-s-restaurant-covington",
      "name": "Turgeau's Restaurant",
      "address": "207 N New Hampshire Street",
      "city": "Covington",
      "state": "LA",
      "state_full": "Louisiana",
      "zip": "70043",
      "phone": "",
      "website": "",
      "category": "Hospitality",
      "lat": "30.4745874",
      "lng": "-90.0955857"
    },
    {
      "handle": "total-wine-lafayette-2502-lafayette",
      "name": "Total Wine Lafayette 2502",
      "address": "4407 Ambassador Caffery Pkwy",
      "city": "Lafayette",
      "state": "LA",
      "state_full": "Louisiana",
      "zip": "70508",
      "phone": "",
      "website": "",
      "category": "Retail",
      "lat": "30.159034",
      "lng": "-92.04737779999999"
    },
    {
      "handle": "piggly-wiggly-madisonville",
      "name": "Piggly Wiggly",
      "address": "207 Covington Street",
      "city": "Madisonville",
      "state": "LA",
      "state_full": "Louisiana",
      "zip": "70447",
      "phone": "",
      "website": "",
      "category": "Retail",
      "lat": "30.4102328",
      "lng": "-90.15984949999999"
    },
    {
      "handle": "total-wine-mandeville-2503-mandeville",
      "name": "Total Wine Mandeville 2503",
      "address": "1882 N. Causeway",
      "city": "Mandeville",
      "state": "LA",
      "state_full": "Louisiana",
      "zip": "70471",
      "phone": "",
      "website": "",
      "category": "Retail",
      "lat": "30.3919749",
      "lng": "-90.0908856"
    },
    {
      "handle": "after-hours-er-metairie",
      "name": "After Hours ER",
      "address": "3431 Houma Boulevard, Suite A",
      "city": "Metairie",
      "state": "LA",
      "state_full": "Louisiana",
      "zip": "70006",
      "phone": "",
      "website": "",
      "category": "Hospitality",
      "lat": "30.0064252",
      "lng": "-90.1796257"
    },
    {
      "handle": "breaux-mart-metairie-metairie",
      "name": "Breaux Mart - Metairie",
      "address": "2904 Severn Ave",
      "city": "Metairie",
      "state": "LA",
      "state_full": "Louisiana",
      "zip": "70002",
      "phone": "",
      "website": "",
      "category": "Retail",
      "lat": "30.0050705",
      "lng": "-90.16026579999999"
    },
    {
      "handle": "cali-sober-market-metairie",
      "name": "Cali Sober Market",
      "address": "1011 Veterans Memorial Blvd, Suite B",
      "city": "Metairie",
      "state": "LA",
      "state_full": "Louisiana",
      "zip": "70005",
      "phone": "",
      "website": "",
      "category": "Retail",
      "lat": "30.0020679",
      "lng": "-90.133428"
    },
    {
      "handle": "coliseum-card-company-metairie",
      "name": "Coliseum Card Company",
      "address": "3116 N Arnoult Rd Suite M",
      "city": "Metairie",
      "state": "LA",
      "state_full": "Louisiana",
      "zip": "70002",
      "phone": "",
      "website": "",
      "category": "Retail",
      "lat": "30.0076004",
      "lng": "-90.16116629999999"
    },
    {
      "handle": "dorignac-s-metairie",
      "name": "Dorignac's",
      "address": "710 Veterans Blvd",
      "city": "Metairie",
      "state": "LA",
      "state_full": "Louisiana",
      "zip": "70005",
      "phone": "",
      "website": "",
      "category": "Retail",
      "lat": "30.0011387",
      "lng": "-90.1298394"
    },
    {
      "handle": "theo-s-pizza-metairie-metairie",
      "name": "Theo's Pizza - Metairie",
      "address": "2125 Veterans Blvd",
      "city": "Metairie",
      "state": "LA",
      "state_full": "Louisiana",
      "zip": "70002",
      "phone": "",
      "website": "",
      "category": "Hospitality",
      "lat": "30.0111682",
      "lng": "-90.15347729999999"
    },
    {
      "handle": "total-wine-metairie-2501-metairie",
      "name": "Total Wine Metairie 2501",
      "address": "3780 Veterans Memorial Blvd",
      "city": "Metairie",
      "state": "LA",
      "state_full": "Louisiana",
      "zip": "70002",
      "phone": "",
      "website": "",
      "category": "Retail",
      "lat": "30.0030849",
      "lng": "-90.1678452"
    },
    {
      "handle": "zuppardos-metairie",
      "name": "Zuppardos",
      "address": "5010 Veterans Memorial Blvd",
      "city": "Metairie",
      "state": "LA",
      "state_full": "Louisiana",
      "zip": "70006",
      "phone": "",
      "website": "",
      "category": "Retail",
      "lat": "30.0050328",
      "lng": "-90.1955926"
    },
    {
      "handle": "nelatonics-monroe",
      "name": "NELATONICS",
      "address": "2715 W Deborah Dr",
      "city": "Monroe",
      "state": "LA",
      "state_full": "Louisiana",
      "zip": "71201",
      "phone": "(318) 572-7902",
      "website": "",
      "category": "Wellness/CBD",
      "lat": "32.5571299",
      "lng": "-92.11501070000001"
    },
    {
      "handle": "bamboulas-new-orleans",
      "name": "Bamboulas",
      "address": "516 Frenchmen Street",
      "city": "New Orleans",
      "state": "LA",
      "state_full": "Louisiana",
      "zip": "70116",
      "phone": "",
      "website": "",
      "category": "Hospitality",
      "lat": "29.9629702",
      "lng": "-90.0577857"
    },
    {
      "handle": "birdies-new-orleans",
      "name": "Birdies",
      "address": "6229 S Claiborne Ave",
      "city": "New Orleans",
      "state": "LA",
      "state_full": "Louisiana",
      "zip": "70125",
      "phone": "(985) 308-0022",
      "website": "",
      "category": "Convenience/Market",
      "lat": "29.9462926",
      "lng": "-90.11341589999999"
    },
    {
      "handle": "birdies-s-claiborne-new-orleans",
      "name": "Birdies (S. Claiborne)",
      "address": "6229 S Claiborne Ave",
      "city": "New Orleans",
      "state": "LA",
      "state_full": "Louisiana",
      "zip": "70125",
      "phone": "",
      "website": "",
      "category": "Retail",
      "lat": "29.9462926",
      "lng": "-90.11341589999999"
    },
    {
      "handle": "lost-coyote-new-orleans",
      "name": "Lost Coyote",
      "address": "1614 Esplanade Ave",
      "city": "New Orleans",
      "state": "LA",
      "state_full": "Louisiana",
      "zip": "70119",
      "phone": "",
      "website": "",
      "category": "Hospitality",
      "lat": "29.9694959",
      "lng": "-90.069403"
    },
    {
      "handle": "parlays-new-orleans",
      "name": "Parlays",
      "address": "870 Harrison Ave",
      "city": "New Orleans",
      "state": "LA",
      "state_full": "Louisiana",
      "zip": "70124",
      "phone": "",
      "website": "",
      "category": "Hospitality",
      "lat": "30.0040005",
      "lng": "-90.1042698"
    },
    {
      "handle": "paulie-s-italian-deli-new-orleans",
      "name": "Paulie's Italian Deli",
      "address": "8201 Oak Street",
      "city": "New Orleans",
      "state": "LA",
      "state_full": "Louisiana",
      "zip": "70118",
      "phone": "",
      "website": "",
      "category": "Hospitality",
      "lat": "29.9483769",
      "lng": "-90.13067"
    },
    {
      "handle": "prytania-wine-spirits-new-orleans",
      "name": "Prytania Wine & Spirits",
      "address": "1300 Arabella Street",
      "city": "New Orleans",
      "state": "LA",
      "state_full": "Louisiana",
      "zip": "70115",
      "phone": "",
      "website": "",
      "category": "Retail",
      "lat": "29.9260941",
      "lng": "-90.1169472"
    },
    {
      "handle": "the-filling-station-new-orleans",
      "name": "The Filling Station",
      "address": "806 Conti Street",
      "city": "New Orleans",
      "state": "LA",
      "state_full": "Louisiana",
      "zip": "70112",
      "phone": "",
      "website": "",
      "category": "Hospitality",
      "lat": "29.956327",
      "lng": "-90.0680295"
    },
    {
      "handle": "tia-maria-s-kitchen-new-orleans",
      "name": "Tia Maria's Kitchen",
      "address": "2931 Tulane Ave Suite A",
      "city": "New Orleans",
      "state": "LA",
      "state_full": "Louisiana",
      "zip": "70119",
      "phone": "",
      "website": "",
      "category": "Hospitality",
      "lat": "29.9635417",
      "lng": "-90.0940351"
    },
    {
      "handle": "7-eleven-centerline-center-line",
      "name": "7-Eleven - Centerline",
      "address": "24012 Van Dyke Avenue",
      "city": "Center Line",
      "state": "MI",
      "state_full": "Michigan",
      "zip": "48015",
      "phone": "+1 616-886-8867",
      "website": "",
      "category": "Retail",
      "lat": "42.4705087",
      "lng": "-83.0265038"
    },
    {
      "handle": "7-eleven-36097-detroit",
      "name": "7-Eleven - #36097",
      "address": "2660 East Jefferson Avenue",
      "city": "Detroit",
      "state": "MI",
      "state_full": "Michigan",
      "zip": "48207",
      "phone": "+1 616-886-8867",
      "website": "",
      "category": "Retail",
      "lat": "42.3387882",
      "lng": "-83.0208585"
    },
    {
      "handle": "7-eleven-36661-detroit",
      "name": "7-Eleven - 36661",
      "address": "139 Cadillac Square",
      "city": "Detroit",
      "state": "MI",
      "state_full": "Michigan",
      "zip": "48226",
      "phone": "+1 616-886-8867",
      "website": "",
      "category": "Retail",
      "lat": "42.3319821",
      "lng": "-83.0436489"
    },
    {
      "handle": "7-eleven-dequindre-rd-madison-heights",
      "name": "7-Eleven (Dequindre Rd)",
      "address": "29265 Dequindre Road",
      "city": "Madison Heights",
      "state": "MI",
      "state_full": "Michigan",
      "zip": "48071",
      "phone": "+1 616-886-8867",
      "website": "",
      "category": "Retail",
      "lat": "42.5075498",
      "lng": "-83.0862446"
    },
    {
      "handle": "7-eleven-harper-ave-st-clair-shores",
      "name": "7-Eleven (Harper Ave)",
      "address": "21701 Harper Avenue",
      "city": "St Clair Shores",
      "state": "MI",
      "state_full": "Michigan",
      "zip": "48080",
      "phone": "+1 616-886-8867",
      "website": "",
      "category": "Retail",
      "lat": "42.4554891",
      "lng": "-82.9130694"
    },
    {
      "handle": "jawdamans-kratom-outlet-hayti",
      "name": "Jawdamans Kratom Outlet",
      "address": "308 S Railroad St",
      "city": "Hayti",
      "state": "MO",
      "state_full": "Missouri",
      "zip": "63851",
      "phone": "(573) 725-3401",
      "website": "",
      "category": "Smoke/Vape Shop",
      "lat": "36.231461",
      "lng": "-89.7532201"
    },
    {
      "handle": "karl-s-kratom-lounge-hayti",
      "name": "Karl's Kratom Lounge",
      "address": "308 S Railroad St",
      "city": "Hayti",
      "state": "MO",
      "state_full": "Missouri",
      "zip": "63851",
      "phone": "(573) 725-3401",
      "website": "",
      "category": "Smoke/Vape Shop",
      "lat": "36.231461",
      "lng": "-89.7532201"
    },
    {
      "handle": "tiger-mart-vape-tobacco-jefferson-city",
      "name": "Tiger Mart Vape & Tobacco",
      "address": "1528 E McCarty St",
      "city": "Jefferson City",
      "state": "MO",
      "state_full": "Missouri",
      "zip": "65101",
      "phone": "(217) 572-4524",
      "website": "",
      "category": "Smoke/Vape Shop",
      "lat": "38.56161609999999",
      "lng": "-92.1514717"
    },
    {
      "handle": "tiger-mart-vape-and-tobacco-jefferson-city",
      "name": "Tiger Mart Vape and Tobacco",
      "address": "1528 E McCarty St",
      "city": "Jefferson City",
      "state": "MO",
      "state_full": "Missouri",
      "zip": "65101",
      "phone": "",
      "website": "",
      "category": "Retail",
      "lat": "38.56161609999999",
      "lng": "-92.1514717"
    },
    {
      "handle": "tweedy-s-smoke-shop-nevada",
      "name": "Tweedy's Smoke Shop",
      "address": "200 S Adams St",
      "city": "Nevada",
      "state": "MO",
      "state_full": "Missouri",
      "zip": "64772",
      "phone": "(510) 993-7598",
      "website": "",
      "category": "Smoke/Vape Shop",
      "lat": "37.8370328",
      "lng": "-94.36098799999999"
    },
    {
      "handle": "smoke-a-z-waveland",
      "name": "Smoke A-Z",
      "address": "301 US-90, Suite C",
      "city": "Waveland",
      "state": "MS",
      "state_full": "Mississippi",
      "zip": "39576",
      "phone": "",
      "website": "",
      "category": "Retail",
      "lat": "30.3062672",
      "lng": "-89.3757724"
    },
    {
      "handle": "smoke-a-z-waveland",
      "name": "Smoke A-Z",
      "address": "301 US-90 Suite C",
      "city": "Waveland",
      "state": "MS",
      "state_full": "Mississippi",
      "zip": "39576",
      "phone": "(228) 344-3250",
      "website": "",
      "category": "Smoke/Vape Shop",
      "lat": "30.3062672",
      "lng": "-89.3757724"
    },
    {
      "handle": "grateful-shed-bozeman",
      "name": "Grateful Shed",
      "address": "2230 W Main St",
      "city": "Bozeman",
      "state": "MT",
      "state_full": "Montana",
      "zip": "59718",
      "phone": "(406) 586-7752",
      "website": "",
      "category": "Retail",
      "lat": "45.6767165",
      "lng": "-111.0681698"
    },
    {
      "handle": "grateful-shed-bozeman",
      "name": "Grateful Shed",
      "address": "2230 W Main St Ste B",
      "city": "Bozeman",
      "state": "MT",
      "state_full": "Montana",
      "zip": "59718",
      "phone": "(406) 586-7752",
      "website": "https://thegratefulshedbozeman.com",
      "category": "Smoke/Vape Shop",
      "lat": "45.676679",
      "lng": "-111.0682677"
    },
    {
      "handle": "hi-vibe-holistics-kill-devil-hills",
      "name": "Hi-Vibe Holistics",
      "address": "1209 S Croatan Hwy",
      "city": "Kill Devil Hills",
      "state": "NC",
      "state_full": "North Carolina",
      "zip": "27948",
      "phone": "(252) 207-3243",
      "website": "https://hivibeobx.com",
      "category": "Wellness/CBD",
      "lat": "36.0038116",
      "lng": "-75.65430289999999"
    },
    {
      "handle": "green-drip-chaffee",
      "name": "Green Drip",
      "address": "10945 Olean Rd, Ste 1 & 2",
      "city": "Chaffee",
      "state": "NY",
      "state_full": "New York",
      "zip": "14030",
      "phone": "",
      "website": "",
      "category": "Retail",
      "lat": "42.5811362",
      "lng": "-78.4830279"
    },
    {
      "handle": "empire-smoke-shop-elma",
      "name": "Empire Smoke Shop",
      "address": "5710 Seneca St",
      "city": "Elma",
      "state": "NY",
      "state_full": "New York",
      "zip": "14059",
      "phone": "",
      "website": "",
      "category": "Retail",
      "lat": "42.8267931",
      "lng": "-78.69632279999999"
    },
    {
      "handle": "empire-smoke-shop-2-elma",
      "name": "Empire Smoke Shop (2)",
      "address": "5710 Seneca St",
      "city": "Elma",
      "state": "NY",
      "state_full": "New York",
      "zip": "14059",
      "phone": "",
      "website": "",
      "category": "Retail",
      "lat": "42.8267931",
      "lng": "-78.69632279999999"
    },
    {
      "handle": "olean-s-wellness-store-olean",
      "name": "Olean's Wellness Store",
      "address": "120 N Union St",
      "city": "Olean",
      "state": "NY",
      "state_full": "New York",
      "zip": "14760",
      "phone": "(716) 379-8266",
      "website": "https://oleanwellness.com",
      "category": "Wellness/CBD",
      "lat": "42.0781232",
      "lng": "-78.4296275"
    },
    {
      "handle": "green-drip-sardinia",
      "name": "Green Drip",
      "address": "1095 Olean Rd",
      "city": "Sardinia",
      "state": "NY",
      "state_full": "New York",
      "zip": "14134",
      "phone": "(716) 473-8326",
      "website": "",
      "category": "Wellness/CBD",
      "lat": "42.5881976",
      "lng": "-78.493575"
    },
    {
      "handle": "scott-s-fast-market-oakridge-oakridge",
      "name": "Scott's Fast Market Oakridge",
      "address": "47555 Highway 58",
      "city": "Oakridge",
      "state": "OR",
      "state_full": "Oregon",
      "zip": "97463",
      "phone": "(541) 782-1827",
      "website": "",
      "category": "Retail",
      "lat": "43.7470177",
      "lng": "-122.4865312"
    },
    {
      "handle": "scott-s-fast-market-oakridge-oakridge",
      "name": "Scott's Fast Market Oakridge",
      "address": "47555 Oregon 58",
      "city": "Oakridge",
      "state": "OR",
      "state_full": "Oregon",
      "zip": "97463",
      "phone": "(541) 782-1827",
      "website": "",
      "category": "Convenience/Market",
      "lat": "43.7470177",
      "lng": "-122.4865312"
    },
    {
      "handle": "elements-public-house-redmond",
      "name": "Elements Public House",
      "address": "1857 NW 6th St",
      "city": "Redmond",
      "state": "OR",
      "state_full": "Oregon",
      "zip": "97756",
      "phone": "(541) 604-8883",
      "website": "https://elementspublichouse.com",
      "category": "Restaurant/Cafe",
      "lat": "44.2935097",
      "lng": "-121.1745348"
    },
    {
      "handle": "vape-smoke-allentown",
      "name": "Vape & Smoke",
      "address": "1320 South 4th St",
      "city": "Allentown",
      "state": "PA",
      "state_full": "Pennsylvania",
      "zip": "18103",
      "phone": "",
      "website": "",
      "category": "Retail",
      "lat": "40.58879020000001",
      "lng": "-75.4603419"
    },
    {
      "handle": "smoke-cigar-blandon",
      "name": "Smoke & Cigar",
      "address": "850 Golden Dr #17",
      "city": "Blandon",
      "state": "PA",
      "state_full": "Pennsylvania",
      "zip": "19510",
      "phone": "(484) 578-0215",
      "website": "https://smokecigare.com",
      "category": "Smoke/Vape Shop",
      "lat": "40.444178",
      "lng": "-75.861586"
    },
    {
      "handle": "smoke-cigar-vaporizer-shop-blandon",
      "name": "Smoke & Cigar Vaporizer Shop",
      "address": "850 Golden Dr #17",
      "city": "Blandon",
      "state": "PA",
      "state_full": "Pennsylvania",
      "zip": "19510",
      "phone": "",
      "website": "",
      "category": "Retail",
      "lat": "40.444178",
      "lng": "-75.861586"
    },
    {
      "handle": "vape-cigar-breinigsville",
      "name": "VAPE & CIGAR",
      "address": "1044 Trexlertown Rd #104",
      "city": "Breinigsville",
      "state": "PA",
      "state_full": "Pennsylvania",
      "zip": "18031",
      "phone": "",
      "website": "",
      "category": "Retail",
      "lat": "40.5516492",
      "lng": "-75.6075852"
    },
    {
      "handle": "excitement-smokin-camp-hill",
      "name": "Excitement Smokin",
      "address": "3401 Hartzdale Dr",
      "city": "Camp Hill",
      "state": "PA",
      "state_full": "Pennsylvania",
      "zip": "17011",
      "phone": "",
      "website": "",
      "category": "Retail",
      "lat": "40.2232774",
      "lng": "-76.9269441"
    },
    {
      "handle": "in-out-beverage-chambersburg",
      "name": "In & Out Beverage",
      "address": "1106 Sheller Ave",
      "city": "Chambersburg",
      "state": "PA",
      "state_full": "Pennsylvania",
      "zip": "17201",
      "phone": "",
      "website": "",
      "category": "Retail",
      "lat": "39.9126655",
      "lng": "-77.648729"
    },
    {
      "handle": "smoke-skill-chambersburg",
      "name": "Smoke & Skill",
      "address": "601 Lincoln Way W",
      "city": "Chambersburg",
      "state": "PA",
      "state_full": "Pennsylvania",
      "zip": "17201",
      "phone": "",
      "website": "",
      "category": "Retail",
      "lat": "39.9381826",
      "lng": "-77.6723215"
    },
    {
      "handle": "calhoun-farm-market-falls-creek",
      "name": "Calhoun Farm & Market",
      "address": "639 Rockdale Rd",
      "city": "Falls Creek",
      "state": "PA",
      "state_full": "Pennsylvania",
      "zip": "15840",
      "phone": "(814) 590-5042",
      "website": "https://calhounfarmstead.com",
      "category": "Farm/Market",
      "lat": "41.184811",
      "lng": "-78.8360287"
    },
    {
      "handle": "pa-vape-cigar-fogelsville",
      "name": "PA Vape & Cigar",
      "address": "7720 Main St Ste 7A",
      "city": "Fogelsville",
      "state": "PA",
      "state_full": "Pennsylvania",
      "zip": "18051",
      "phone": "",
      "website": "",
      "category": "Retail",
      "lat": "40.5827018",
      "lng": "-75.627811"
    },
    {
      "handle": "elevate-smoke-shop-hanover",
      "name": "Elevate Smoke Shop",
      "address": "1059 Carlisle St",
      "city": "Hanover",
      "state": "PA",
      "state_full": "Pennsylvania",
      "zip": "17331",
      "phone": "",
      "website": "",
      "category": "Retail",
      "lat": "39.8181726",
      "lng": "-76.994236"
    },
    {
      "handle": "excitement-smokin-king-of-prussia",
      "name": "Excitement Smokin",
      "address": "143 S Gulph Rd",
      "city": "King of Prussia",
      "state": "PA",
      "state_full": "Pennsylvania",
      "zip": "19406",
      "phone": "",
      "website": "",
      "category": "Retail",
      "lat": "40.0837122",
      "lng": "-75.38757930000001"
    },
    {
      "handle": "mr-smoke-lancaster",
      "name": "Mr. Smoke",
      "address": "1320 Lititz Pike",
      "city": "Lancaster",
      "state": "PA",
      "state_full": "Pennsylvania",
      "zip": "17601",
      "phone": "",
      "website": "",
      "category": "Retail",
      "lat": "40.0617737",
      "lng": "-76.3078008"
    },
    {
      "handle": "excitement-smokin-reading",
      "name": "Excitement Smokin",
      "address": "2396 Lancaster Pike",
      "city": "Reading",
      "state": "PA",
      "state_full": "Pennsylvania",
      "zip": "19607",
      "phone": "",
      "website": "",
      "category": "Retail",
      "lat": "40.3019297",
      "lng": "-75.9914307"
    },
    {
      "handle": "simply-tabacco-scranton",
      "name": "Simply Tabacco",
      "address": "208 Meadow Ave Unit 3",
      "city": "Scranton",
      "state": "PA",
      "state_full": "Pennsylvania",
      "zip": "18505",
      "phone": "(570) 866-2090",
      "website": "",
      "category": "Smoke/Vape Shop",
      "lat": "41.3957316",
      "lng": "-75.6516542"
    },
    {
      "handle": "vape-and-smoke-whitehall-township",
      "name": "Vape and Smoke",
      "address": "4823 Main St",
      "city": "Whitehall Township",
      "state": "PA",
      "state_full": "Pennsylvania",
      "zip": "18052",
      "phone": "",
      "website": "",
      "category": "Retail",
      "lat": "40.6795425",
      "lng": "-75.5392767"
    },
    {
      "handle": "excitement-smokin-york",
      "name": "Excitement Smokin",
      "address": "909 Loucks Rd",
      "city": "York",
      "state": "PA",
      "state_full": "Pennsylvania",
      "zip": "17404",
      "phone": "",
      "website": "",
      "category": "Retail",
      "lat": "39.9806046",
      "lng": "-76.754415"
    },
    {
      "handle": "gather-256-york",
      "name": "Gather 256",
      "address": "256 W Philadelphia St",
      "city": "York",
      "state": "PA",
      "state_full": "Pennsylvania",
      "zip": "17401",
      "phone": "",
      "website": "",
      "category": "Retail",
      "lat": "39.9616945",
      "lng": "-76.7349401"
    },
    {
      "handle": "planet-ryo-york",
      "name": "Planet RYO",
      "address": "2559 S Queen St",
      "city": "York",
      "state": "PA",
      "state_full": "Pennsylvania",
      "zip": "17402",
      "phone": "",
      "website": "",
      "category": "Retail",
      "lat": "39.912277",
      "lng": "-76.6810536"
    },
    {
      "handle": "smart-warehouse-ardmore",
      "name": "Smart Warehouse",
      "address": "27035 Main St",
      "city": "Ardmore",
      "state": "TN",
      "state_full": "Tennessee",
      "zip": "38449",
      "phone": "(347) 987-8087",
      "website": "",
      "category": "Smoke/Vape Shop",
      "lat": "34.9922309",
      "lng": "-86.8374822"
    },
    {
      "handle": "andys-liquor-austin",
      "name": "Andys liquor",
      "address": "9616 N Lamar Blvd, Ste 165",
      "city": "Austin",
      "state": "TX",
      "state_full": "Texas",
      "zip": "78753",
      "phone": "(512) 832-0949",
      "website": "https://andysliquor.com",
      "category": "May",
      "lat": "30.36671999999999",
      "lng": "-97.69544929999999"
    },
    {
      "handle": "chris-liquor-slamar-austin",
      "name": "Chris Liquor Slamar",
      "address": "2110 W Slaughter Ln",
      "city": "Austin",
      "state": "TX",
      "state_full": "Texas",
      "zip": "78748",
      "phone": "(512) 292-3294",
      "website": "",
      "category": "March",
      "lat": "30.1748453",
      "lng": "-97.82393169999999"
    },
    {
      "handle": "chriss-liquor-austin",
      "name": "Chriss Liquor",
      "address": "2203 S Lamar Blvd",
      "city": "Austin",
      "state": "TX",
      "state_full": "Texas",
      "zip": "78704",
      "phone": "(512) 442-2288",
      "website": "",
      "category": "March",
      "lat": "30.24729689999999",
      "lng": "-97.7731663"
    },
    {
      "handle": "clints-8-austin",
      "name": "Clints #8",
      "address": "Texas",
      "city": "Austin",
      "state": "TX",
      "state_full": "Texas",
      "zip": "",
      "phone": "",
      "website": "",
      "category": "May",
      "lat": "30.267153",
      "lng": "-97.7430608"
    },
    {
      "handle": "green-haus-wellness-austin",
      "name": "Green Haus Wellness",
      "address": "11410 Menchaca Rd Ste 200",
      "city": "Austin",
      "state": "TX",
      "state_full": "Texas",
      "zip": "78748",
      "phone": "(512) 904-0026",
      "website": "https://greenhausatx.com",
      "category": "Wellness/CBD",
      "lat": "30.154122",
      "lng": "-97.8341306"
    },
    {
      "handle": "the-point-vape-smoke-austin",
      "name": "The Point vape&smoke",
      "address": "13541 Ranch Rd 620 N",
      "city": "Austin",
      "state": "TX",
      "state_full": "Texas",
      "zip": "78717",
      "phone": "",
      "website": "",
      "category": "February",
      "lat": "30.4729007",
      "lng": "-97.7801777"
    },
    {
      "handle": "trippiez-4-austin",
      "name": "trippiez #4",
      "address": "16238 Ranch Rd 620",
      "city": "Austin",
      "state": "TX",
      "state_full": "Texas",
      "zip": "78717",
      "phone": "(512) 215-8698",
      "website": "https://www.trippiez.com",
      "category": "May",
      "lat": "30.4929514",
      "lng": "-97.7269882"
    },
    {
      "handle": "uptown-liquor-9-austin",
      "name": "uptown liquor 9",
      "address": "14701 Burnet Rd",
      "city": "Austin",
      "state": "TX",
      "state_full": "Texas",
      "zip": "78728",
      "phone": "(512) 300-0030",
      "website": "https://uptownliquortx.com",
      "category": "April",
      "lat": "30.4512044",
      "lng": "-97.6949769"
    },
    {
      "handle": "delta-bros-basdrop-bastrop",
      "name": "Delta Bros Basdrop",
      "address": "109 S Hasler Blvd",
      "city": "Bastrop",
      "state": "TX",
      "state_full": "Texas",
      "zip": "78602",
      "phone": "(737) 802-3000",
      "website": "https://deltabrostx.com",
      "category": "April",
      "lat": "30.1049721",
      "lng": "-97.33542539999999"
    },
    {
      "handle": "usa-grocery-grill-bedford",
      "name": "USA Grocery & Grill",
      "address": "800 Forest Ridge Dr",
      "city": "Bedford",
      "state": "TX",
      "state_full": "Texas",
      "zip": "76022",
      "phone": "(817) 952-7242",
      "website": "",
      "category": "Retail",
      "lat": "32.8225591",
      "lng": "-97.14707589999999"
    },
    {
      "handle": "good-to-go-cedar-hill",
      "name": "Good To Go",
      "address": "920 N Highway 67",
      "city": "Cedar Hill",
      "state": "TX",
      "state_full": "Texas",
      "zip": "75104",
      "phone": "(972) 293-2335",
      "website": "",
      "category": "Convenience/Market",
      "lat": "32.6052351",
      "lng": "-96.92895"
    },
    {
      "handle": "dfw-beer-wine-corinth-corinth",
      "name": "DFW Beer & Wine - Corinth",
      "address": "6828 S Interstate 35 E Ste 120",
      "city": "Corinth",
      "state": "TX",
      "state_full": "Texas",
      "zip": "76210",
      "phone": "(214) 289-1812",
      "website": "",
      "category": "Liquor Store",
      "lat": "33.1444487",
      "lng": "-97.0541992"
    },
    {
      "handle": "dfw-beer-wine-smoke-corinth-corinth",
      "name": "DFW Beer Wine Smoke - Corinth",
      "address": "6828 S Interstate 35 E, Ste 120",
      "city": "Corinth",
      "state": "TX",
      "state_full": "Texas",
      "zip": "76210",
      "phone": "(940) 326-9035",
      "website": "",
      "category": "Retail",
      "lat": "33.1444487",
      "lng": "-97.0541992"
    },
    {
      "handle": "pogo-s-wine-spirits-dallas",
      "name": "Pogo's Wine & Spirits",
      "address": "5360 W Lovers Ln #200",
      "city": "Dallas",
      "state": "TX",
      "state_full": "Texas",
      "zip": "75209",
      "phone": "(214) 350-8989",
      "website": "https://pogoswine.com",
      "category": "Liquor Store",
      "lat": "32.8501734",
      "lng": "-96.82067389999999"
    },
    {
      "handle": "castle-liquor-kyle-kyle",
      "name": "Castle Liquor Kyle",
      "address": "1290 Bebee Rd, Ste 300",
      "city": "Kyle",
      "state": "TX",
      "state_full": "Texas",
      "zip": "78640",
      "phone": "(512) 504-3052",
      "website": "",
      "category": "May",
      "lat": "30.0169037",
      "lng": "-97.8406626"
    },
    {
      "handle": "geek-liquor-manchaca",
      "name": "Geek Liquor",
      "address": "2051 FM 1626",
      "city": "Manchaca",
      "state": "TX",
      "state_full": "Texas",
      "zip": "78652",
      "phone": "(512) 291-3175",
      "website": "",
      "category": "March",
      "lat": "30.1389986",
      "lng": "-97.84790869999999"
    },
    {
      "handle": "delta-bros-manor-manor",
      "name": "Delta Bros Manor",
      "address": "14001 Shadow Glen Blvd, Ste A",
      "city": "Manor",
      "state": "TX",
      "state_full": "Texas",
      "zip": "78653",
      "phone": "(737) 802-3000",
      "website": "https://deltabrostx.com",
      "category": "April",
      "lat": "30.3502407",
      "lng": "-97.5471079"
    },
    {
      "handle": "twisted-liquor-manor",
      "name": "Twisted Liquor",
      "address": "14001 Shadow Glen Blvd, Ste A",
      "city": "Manor",
      "state": "TX",
      "state_full": "Texas",
      "zip": "78653",
      "phone": "(737) 802-3000",
      "website": "",
      "category": "April",
      "lat": "30.3502407",
      "lng": "-97.5471079"
    },
    {
      "handle": "620-liquor-round-rock",
      "name": "620 Liquor",
      "address": "17420 N FM 620, Ste 130",
      "city": "Round Rock",
      "state": "TX",
      "state_full": "Texas",
      "zip": "78717",
      "phone": "(512) 660-5038",
      "website": "",
      "category": "February",
      "lat": "30.5070233",
      "lng": "-97.7178005"
    },
    {
      "handle": "global-fusion-rva-richmond",
      "name": "Global Fusion RVA",
      "address": "2601 Maury St Bldg 2",
      "city": "Richmond",
      "state": "VA",
      "state_full": "Virginia",
      "zip": "23224",
      "phone": "(804) 514-1999",
      "website": "https://globalfusionmobile.com",
      "category": "Restaurant/Cafe",
      "lat": "37.5106541",
      "lng": "-77.45370559999999"
    },
    {
      "handle": "fdl-vapor-fond-du-lac",
      "name": "FDL Vapor",
      "address": "928 S Main St",
      "city": "Fond du Lac",
      "state": "WI",
      "state_full": "Wisconsin",
      "zip": "54935",
      "phone": "",
      "website": "",
      "category": "Retail",
      "lat": "43.7535068",
      "lng": "-88.449988"
    },
    {
      "handle": "sheboygan-vapor-sheboygan",
      "name": "Sheboygan Vapor",
      "address": "3116 S Business Dr",
      "city": "Sheboygan",
      "state": "WI",
      "state_full": "Wisconsin",
      "zip": "53081",
      "phone": "(920) 453-0004",
      "website": "",
      "category": "Retail",
      "lat": "43.7229683",
      "lng": "-87.7387634"
    },
    {
      "handle": "sheboygan-vapor-sheboygan",
      "name": "Sheboygan Vapor",
      "address": "3104 S Business Dr",
      "city": "Sheboygan",
      "state": "WI",
      "state_full": "Wisconsin",
      "zip": "53081",
      "phone": "(920) 453-0004",
      "website": "",
      "category": "Smoke/Vape Shop",
      "lat": "43.7234484",
      "lng": "-87.73837259999999"
    },
    {
      "handle": "west-bend-vapor-west-bend",
      "name": "West Bend Vapor",
      "address": "807 S Main St",
      "city": "West Bend",
      "state": "WI",
      "state_full": "Wisconsin",
      "zip": "53095",
      "phone": "(262) 429-1444",
      "website": "",
      "category": "Retail",
      "lat": "43.4120018",
      "lng": "-88.1802415"
    }
  ]
}
